[
  {
    "stopId": "0a94be02-c99b-4365-835a-745d0152eb6a",
    "countryIso": "VNM",
    "countryUrl": "vietnam",
    "stopName": "Stop 26 2 S30",
    "stopTypeGroup": "bus",
    "stopLat": 20.994308730169855,
    "stopLon": 105.8626596786864,
    "stopDesc": "",
    "datetime": "2025-10-11T05:55:36+07:00",
    "tags": { "name": "89 Nguyễn Tam Trinh" }
  },
  {
    "stopId": "c6aa74ac-942c-41e7-803b-d00ee617d28b",
    "countryIso": "VNM",
    "countryUrl": "vietnam",
    "stopName": "Stop 26 2 S31",
    "stopTypeGroup": "bus",
    "stopLat": 20.999563968168832,
    "stopLon": 105.86364441475233,
    "stopDesc": "",
    "datetime": "2025-10-11T05:57:57+07:00",
    "tags": { "name": "Giữa Số Nhà 613-615 Kim Ngưu" }
  },
  {
    "stopId": "67d60871-0d1a-4437-96be-a1c1087c4942",
    "countryIso": "VNM",
    "countryUrl": "vietnam",
    "stopName": "Stop 26 2 S32",
    "stopTypeGroup": "bus",
    "stopLat": 21.002337429576485,
    "stopLon": 105.86220812462997,
    "stopDesc": "",
    "datetime": "2025-10-11T06:00:25+07:00",
    "tags": { "name": "Số 377 Kim Ngưu" }
  },
  {
    "stopId": "3ac5e3d6-3f58-48c1-ba5b-6060d3b97b0a",
    "countryIso": "VNM",
    "countryUrl": "vietnam",
    "stopName": "Stop 26 2 S33",
    "stopTypeGroup": "bus",
    "stopLat": 21.003463008841415,
    "stopLon": 105.86035499863533,
    "stopDesc": "",
    "datetime": "2025-10-11T06:01:32+07:00",
    "tags": { "name": "Qua Cổng Bệnh Viện Thanh Nhàn 50M - 42 Thanh Nhàn" }
  },
  {
    "stopId": "6742365b-4a52-44a9-a52d-339d462a3451",
    "countryIso": "VNM",
    "countryUrl": "vietnam",
    "stopName": "Stop 26 2 S34",
    "stopTypeGroup": "bus",
    "stopLat": 21.003190838416067,
    "stopLon": 105.85367972926238,
    "stopDesc": "",
    "datetime": "2025-10-11T06:02:37+07:00",
    "tags": { "name": "Gần Chung Cư A3B (Số 92) Thanh Nhàn" }
  },
  {
    "stopId": "1e939334-7eeb-4aca-9eb2-a9b36d8d37b7",
    "countryIso": "VNM",
    "countryUrl": "vietnam",
    "stopName": "Stop 26 2 S35",
    "stopTypeGroup": "bus",
    "stopLat": 21.003284074277378,
    "stopLon": 105.84887233007697,
    "stopDesc": "",
    "datetime": "2025-10-11T06:03:30+07:00",
    "tags": { "name": "Qua Viện Tin Học Pháp Ngữ 20M - Lê Thanh Nghị" }
  },
  {
    "stopId": "2712225d-9679-4bd5-a88b-203b53b9ca35",
    "countryIso": "VNM",
    "countryUrl": "vietnam",
    "stopName": "Stop 26 2 S36",
    "stopTypeGroup": "bus",
    "stopLat": 21.002464624746285,
    "stopLon": 105.84419866983629,
    "stopDesc": "",
    "datetime": "2025-10-11T06:04:59+07:00",
    "tags": { "name": "170 - 172 Lê Thanh Nghị" }
  },
  {
    "stopId": "3ceeb159-9c05-4ee0-abbe-4f4b1053b687",
    "countryIso": "VNM",
    "countryUrl": "vietnam",
    "stopName": "Stop 26 2 S37",
    "stopTypeGroup": "bus",
    "stopLat": 21.00535740638753,
    "stopLon": 105.84195920258259,
    "stopDesc": "",
    "datetime": "2025-10-11T06:05:57+07:00",
    "tags": {
      "name": "Gần Cổng Parabol ĐH Bách Khoa - 17 Giải Phóng (Cột Trước)"
    }
  },
  {
    "stopId": "b0a3df7a-beea-40cb-a6c2-6661a168b1e4",
    "countryIso": "VNM",
    "countryUrl": "vietnam",
    "stopName": "Stop 26 2 S38",
    "stopTypeGroup": "bus",
    "stopLat": 21.00997657342416,
    "stopLon": 105.83772991607638,
    "stopDesc": "",
    "datetime": "2025-10-11T06:09:06+07:00",
    "tags": { "name": "101A2 TT Trung Tự - Phạm Ngọc Thạch" }
  },
  {
    "stopId": "bdd326c7-d6e0-4dac-9154-f8bebc0c6cf9",
    "countryIso": "VNM",
    "countryUrl": "vietnam",
    "stopName": "Stop 26 2 S39",
    "stopTypeGroup": "bus",
    "stopLat": 21.007108794060926,
    "stopLon": 105.8317307914565,
    "stopDesc": "",
    "datetime": "2025-10-11T06:11:29+07:00",
    "tags": { "name": "88 Phạm Ngọc Thạch" }
  },
  {
    "stopId": "819146c1-df42-4330-a08f-cde58d2bbbb8",
    "countryIso": "VNM",
    "countryUrl": "vietnam",
    "stopName": "Stop 26 2 S40",
    "stopTypeGroup": "bus",
    "stopLat": 21.00781376972189,
    "stopLon": 105.8298998374657,
    "stopDesc": "",
    "datetime": "2025-10-11T06:12:07+07:00",
    "tags": {
      "name": "Công Ty In Thương Mại & Dịch Vụ Ngân Hàng - Số 10 Chùa Bộc"
    }
  },
  {
    "stopId": "8d1ced3e-b6d5-418e-b710-3fc73bdd0d32",
    "countryIso": "VNM",
    "countryUrl": "vietnam",
    "stopName": "Stop 26 2 S41",
    "stopTypeGroup": "bus",
    "stopLat": 21.011144410726704,
    "stopLon": 105.8237007818095,
    "stopDesc": "",
    "datetime": "2025-10-11T06:14:05+07:00",
    "tags": { "name": "54-56 Thái Hà" }
  },
  {
    "stopId": "af3c9324-7a45-40f2-a436-1c827f8a5087",
    "countryIso": "VNM",
    "countryUrl": "vietnam",
    "stopName": "Stop 26 2 S42",
    "stopTypeGroup": "bus",
    "stopLat": 21.013212659691675,
    "stopLon": 105.82104537371674,
    "stopDesc": "",
    "datetime": "2025-10-11T06:16:06+07:00",
    "tags": { "name": "176 Thái Hà" }
  },
  {
    "stopId": "c66ef8b9-da19-4f3d-8d27-d15ef92dd4be",
    "countryIso": "VNM",
    "countryUrl": "vietnam",
    "stopName": "Stop 26 2 S43",
    "stopTypeGroup": "bus",
    "stopLat": 21.016372737014947,
    "stopLon": 105.81704550252964,
    "stopDesc": "",
    "datetime": "2025-10-11T06:16:55+07:00",
    "tags": { "name": "Rạp Chiếu Phim Quốc Gia - Thái Hà" }
  },
  {
    "stopId": "95747d36-e58b-4680-862c-8d1aeef01aa1",
    "countryIso": "VNM",
    "countryUrl": "vietnam",
    "stopName": "Stop 26 2 S44",
    "stopTypeGroup": "bus",
    "stopLat": 21.01741012537921,
    "stopLon": 105.81553057134614,
    "stopDesc": "",
    "datetime": "2025-10-11T06:19:40+07:00",
    "tags": { "name": "Đối Diện Đài Truyền Hình Hà Nội - 5 Huỳnh Thúc Kháng" }
  },
  {
    "stopId": "6099aa1e-2acc-45a7-904c-43c20921a0e3",
    "countryIso": "VNM",
    "countryUrl": "vietnam",
    "stopName": "Stop 26 2 S45",
    "stopTypeGroup": "bus",
    "stopLat": 21.019975695650686,
    "stopLon": 105.81132214272608,
    "stopDesc": "",
    "datetime": "2025-10-11T06:20:25+07:00",
    "tags": { "name": "20 Huỳnh Thúc Kháng" }
  },
  {
    "stopId": "218d43f1-706a-45f7-91cc-18df7c7cfa9e",
    "countryIso": "VNM",
    "countryUrl": "vietnam",
    "stopName": "Stop 26 2 S46",
    "stopTypeGroup": "bus",
    "stopLat": 21.02288530575714,
    "stopLon": 105.81050187892913,
    "stopDesc": "",
    "datetime": "2025-10-11T06:20:43+07:00",
    "tags": { "name": "Nguyễn Chí Thanh" }
  },
  {
    "stopId": "f3c5f199-a997-41bf-8442-0f6271577778",
    "countryIso": "VNM",
    "countryUrl": "vietnam",
    "stopName": "Stop 26 2 S47",
    "stopTypeGroup": "bus",
    "stopLat": 21.024102696666944,
    "stopLon": 105.81170405287843,
    "stopDesc": "",
    "datetime": "2025-10-11T06:22:44+07:00",
    "tags": { "name": "73 Nguyễn Chí Thanh - Đối Diện Khách Sạn Bảo Sơn" }
  },
  {
    "stopId": "1bb16f1f-154a-48eb-acc1-eaadd9ff5f85",
    "countryIso": "VNM",
    "countryUrl": "vietnam",
    "stopName": "Stop 26 2 S48",
    "stopTypeGroup": "bus",
    "stopLat": 21.02774479778806,
    "stopLon": 105.81042686327805,
    "stopDesc": "",
    "datetime": "2025-10-11T06:24:27+07:00",
    "tags": { "name": "1080 Đ. La Thành - Láng Thượng" }
  },
  {
    "stopId": "1fad522d-ded1-40db-af49-0e796a29ce0a",
    "countryIso": "VNM",
    "countryUrl": "vietnam",
    "stopName": "Stop 26 2 S49",
    "stopTypeGroup": "bus",
    "stopLat": 21.029611156278683,
    "stopLon": 105.80476707874243,
    "stopDesc": "",
    "datetime": "2025-10-11T06:25:46+07:00",
    "tags": { "name": "Điểm Trung Chuyển Cầu Giấy - Thủ Lệ 02" }
  },
  {
    "stopId": "12c841e1-fb33-4e8b-ab89-42408f36cc83",
    "countryIso": "VNM",
    "countryUrl": "vietnam",
    "stopName": "Stop 26 2 S50",
    "stopTypeGroup": "bus",
    "stopLat": 21.03320331316471,
    "stopLon": 105.79904207793655,
    "stopDesc": "",
    "datetime": "2025-10-11T06:27:53+07:00",
    "tags": { "name": "Số 148-150 Cầu Giấy" }
  },
  {
    "stopId": "efab9ca4-5d0b-47da-8ad8-49f530e614fd",
    "countryIso": "VNM",
    "countryUrl": "vietnam",
    "stopName": "Stop 26 2 S51",
    "stopTypeGroup": "bus",
    "stopLat": 21.03528665072452,
    "stopLon": 105.79530892528732,
    "stopDesc": "",
    "datetime": "2025-10-11T06:28:52+07:00",
    "tags": { "name": "250 - 252 Cầu Giấy - Dịch Vọng" }
  },
  {
    "stopId": "ac767758-4497-430f-a591-8a1d5dd533b3",
    "countryIso": "VNM",
    "countryUrl": "vietnam",
    "stopName": "Stop 26 2 S52",
    "stopTypeGroup": "bus",
    "stopLat": 21.036022292264523,
    "stopLon": 105.79290336726969,
    "stopDesc": "",
    "datetime": "2025-10-11T06:29:42+07:00",
    "tags": { "name": "370 Cầu Giấy" }
  },
  {
    "stopId": "332e3acd-7a21-4793-8456-d0e3836c98d2",
    "countryIso": "VNM",
    "countryUrl": "vietnam",
    "stopName": "Stop 26 2 S53",
    "stopTypeGroup": "bus",
    "stopLat": 21.036861869090554,
    "stopLon": 105.78923550252611,
    "stopDesc": "",
    "datetime": "2025-10-11T06:32:06+07:00",
    "tags": { "name": "Học Viện Báo Chí Và Tuyên Truyền - 36 Xuân Thủy" }
  },
  {
    "stopId": "6cc9ef12-dd0e-40c9-9ae2-2f6dd345bbd6",
    "countryIso": "VNM",
    "countryUrl": "vietnam",
    "stopName": "Stop 26 2 S54",
    "stopTypeGroup": "bus",
    "stopLat": 21.037102480957202,
    "stopLon": 105.78653747472764,
    "stopDesc": "",
    "datetime": "2025-10-11T06:33:36+07:00",
    "tags": { "name": "Chợ Xanh - Dịch Vọng Hậu" }
  },
  {
    "stopId": "f194bb35-64f4-4117-9b9b-19fbdc888f82",
    "countryIso": "VNM",
    "countryUrl": "vietnam",
    "stopName": "Stop 26 2 S55",
    "stopTypeGroup": "bus",
    "stopLat": 21.03699579739123,
    "stopLon": 105.78419672465144,
    "stopDesc": "",
    "datetime": "2025-10-11T06:34:09+07:00",
    "tags": {
      "name": "Gần Nhà Sách Sư Phạm (Đại Học Sư Phạm Hà Nội) - 136 Xuân Thủy"
    }
  },
  {
    "stopId": "76200df3-b808-4a2e-bb0f-ab759af96f52",
    "countryIso": "VNM",
    "countryUrl": "vietnam",
    "stopName": "Stop 26 2 S56",
    "stopTypeGroup": "bus",
    "stopLat": 21.038533034190355,
    "stopLon": 105.77368151706757,
    "stopDesc": "",
    "datetime": "2025-10-11T06:34:24+07:00",
    "tags": { "name": "Ga Lê Đức Thọ - Đường Hồ Tùng Mậu" }
  },
  {
    "stopId": "5840deb4-47e2-483c-a349-7866e85a297f",
    "countryIso": "VNM",
    "countryUrl": "vietnam",
    "stopName": "Stop 26 2 S57",
    "stopTypeGroup": "bus",
    "stopLat": 21.03749420876544,
    "stopLon": 105.77271543012873,
    "stopDesc": "",
    "datetime": "2025-10-11T06:38:17+07:00",
    "tags": { "name": "Đối Diện Đài Truyền Hình Công An Nhân Dân - ANTV" }
  },
  {
    "stopId": "b0b13c7c-19aa-4db6-b0b2-bc38877d8af9",
    "countryIso": "VNM",
    "countryUrl": "vietnam",
    "stopName": "Stop 26 2 S58",
    "stopTypeGroup": "bus",
    "stopLat": 21.031881442028475,
    "stopLon": 105.7706101660489,
    "stopDesc": "",
    "datetime": "2025-10-11T06:39:24+07:00",
    "tags": { "name": "Nhà CT2B KĐT Mỹ Đình - Lê Đức Thọ" }
  },
  {
    "stopId": "84de81dd-003c-48ea-885e-5d4108f8fd7a",
    "countryIso": "VNM",
    "countryUrl": "vietnam",
    "stopName": "Stop 26 2 S59",
    "stopTypeGroup": "bus",
    "stopLat": 21.025496719356337,
    "stopLon": 105.7683414631145,
    "stopDesc": "",
    "datetime": "2025-10-11T06:41:03+07:00",
    "tags": {
      "name": "Đối Diện Đường Vào Trường CĐ Nghề Trần Hưng Đạo - Lê Đức Thọ"
    }
  }
]
